<?xml version="1.0" ?>
<ROWDATA>

<ROW>
  <BUSSINESS_ID>FD59B9D09CC00B62E040007F01007052</BUSSINESS_ID>
  <BUSSINESS_REGIONID>FDAA9CF07D0061CDE040007F01005B69</BUSSINESS_REGIONID>
  <BUSSINESS_NAME>武汉广场</BUSSINESS_NAME>
  <BUSSINESS_LNG>114.272832</BUSSINESS_LNG>
  <BUSSINESS_LAT>30.579773</BUSSINESS_LAT>
  <BUSSINESS_DESC>武汉广场</BUSSINESS_DESC>
  <BUSSINESS_SORT>3</BUSSINESS_SORT>
</ROW>

<ROW>
  <BUSSINESS_ID>FD59B9D09CC00B62E040007F01007053</BUSSINESS_ID>
  <BUSSINESS_REGIONID>FDAA9CF07D0061CDE040007F01005B69</BUSSINESS_REGIONID>
  <BUSSINESS_NAME>中南路</BUSSINESS_NAME>
  <BUSSINESS_LNG>114.339512</BUSSINESS_LNG>
  <BUSSINESS_LAT>30.54376</BUSSINESS_LAT>
  <BUSSINESS_DESC>中南路</BUSSINESS_DESC>
  <BUSSINESS_SORT>4</BUSSINESS_SORT>
</ROW>

<ROW>
  <BUSSINESS_ID>FD59B9D09CC00B62E040007F01007051</BUSSINESS_ID>
  <BUSSINESS_REGIONID>FDAA9CF07D0061CDE040007F01005B69</BUSSINESS_REGIONID>
  <BUSSINESS_NAME>钟家村</BUSSINESS_NAME>
  <BUSSINESS_LNG>114.271692</BUSSINESS_LNG>
  <BUSSINESS_LAT>30.554912</BUSSINESS_LAT>
  <BUSSINESS_DESC>钟家村</BUSSINESS_DESC>
  <BUSSINESS_SORT>5</BUSSINESS_SORT>
</ROW>

<ROW>
  <BUSSINESS_ID>FF73F800C6EC6DADE040007F01002DC3</BUSSINESS_ID>
  <BUSSINESS_REGIONID>FDAA9CF07D0061CDE040007F01005B69</BUSSINESS_REGIONID>
  <BUSSINESS_NAME>江汉大学</BUSSINESS_NAME>
  <BUSSINESS_LNG>114.1663</BUSSINESS_LNG>
  <BUSSINESS_LAT>30.515828</BUSSINESS_LAT>
  <BUSSINESS_DESC>江汉大学</BUSSINESS_DESC>
  <BUSSINESS_SORT>13</BUSSINESS_SORT>
</ROW>

<ROW>
  <BUSSINESS_ID>FF73F800C6ED6DADE040007F01002DC3</BUSSINESS_ID>
  <BUSSINESS_REGIONID>FDAA9CF07D0061CDE040007F01005B69</BUSSINESS_REGIONID>
  <BUSSINESS_NAME>沌口</BUSSINESS_NAME>
  <BUSSINESS_LNG>114.190652</BUSSINESS_LNG>
  <BUSSINESS_LAT>30.465928</BUSSINESS_LAT>
  <BUSSINESS_DESC>沌口</BUSSINESS_DESC>
  <BUSSINESS_SORT>14</BUSSINESS_SORT>
</ROW>

<ROW>
  <BUSSINESS_ID>FF73F800C6EE6DADE040007F01002DC3</BUSSINESS_ID>
  <BUSSINESS_REGIONID>FDAA9CF07D0061CDE040007F01005B69</BUSSINESS_REGIONID>
  <BUSSINESS_NAME>藏龙岛</BUSSINESS_NAME>
  <BUSSINESS_LNG>114.43655</BUSSINESS_LNG>
  <BUSSINESS_LAT>30.438329</BUSSINESS_LAT>
  <BUSSINESS_DESC>藏龙岛</BUSSINESS_DESC>
  <BUSSINESS_SORT>15</BUSSINESS_SORT>
</ROW>

<ROW>
  <BUSSINESS_ID>FF73F800C6EF6DADE040007F01002DC3</BUSSINESS_ID>
  <BUSSINESS_REGIONID>FDAA9CF07D0061CDE040007F01005B69</BUSSINESS_REGIONID>
  <BUSSINESS_NAME>纸坊</BUSSINESS_NAME>
  <BUSSINESS_LNG>114.330793</BUSSINESS_LNG>
  <BUSSINESS_LAT>30.361531</BUSSINESS_LAT>
  <BUSSINESS_DESC>纸坊</BUSSINESS_DESC>
  <BUSSINESS_SORT>16</BUSSINESS_SORT>
</ROW>

<ROW>
  <BUSSINESS_ID>FF73F800C6F06DADE040007F01002DC3</BUSSINESS_ID>
  <BUSSINESS_REGIONID>FDAA9CF07D0061CDE040007F01005B69</BUSSINESS_REGIONID>
  <BUSSINESS_NAME>大花岭</BUSSINESS_NAME>
  <BUSSINESS_LNG>114.31427</BUSSINESS_LNG>
  <BUSSINESS_LAT>30.41923</BUSSINESS_LAT>
  <BUSSINESS_DESC>大花岭</BUSSINESS_DESC>
  <BUSSINESS_SORT>17</BUSSINESS_SORT>
</ROW>

<ROW>
  <BUSSINESS_ID>FF73F800C6F16DADE040007F01002DC3</BUSSINESS_ID>
  <BUSSINESS_REGIONID>FDAA9CF07D0061CDE040007F01005B69</BUSSINESS_REGIONID>
  <BUSSINESS_NAME>庙山</BUSSINESS_NAME>
  <BUSSINESS_LNG>114.382213</BUSSINESS_LNG>
  <BUSSINESS_LAT>30.431315</BUSSINESS_LAT>
  <BUSSINESS_DESC>庙山</BUSSINESS_DESC>
  <BUSSINESS_SORT>18</BUSSINESS_SORT>
</ROW>

<ROW>
  <BUSSINESS_ID>FF73F800C6F26DADE040007F01002DC3</BUSSINESS_ID>
  <BUSSINESS_REGIONID>FDAA9CF07D0061CDE040007F01005B69</BUSSINESS_REGIONID>
  <BUSSINESS_NAME>客运港/江滩</BUSSINESS_NAME>
  <BUSSINESS_LNG>114.306098</BUSSINESS_LNG>
  <BUSSINESS_LAT>30.583838</BUSSINESS_LAT>
  <BUSSINESS_DESC>客运港/江滩</BUSSINESS_DESC>
  <BUSSINESS_SORT>19</BUSSINESS_SORT>
</ROW>

<ROW>
  <BUSSINESS_ID>FF73F800C6F46DADE040007F01002DC3</BUSSINESS_ID>
  <BUSSINESS_REGIONID>FDAA9CF07D0061CDE040007F01005B69</BUSSINESS_REGIONID>
  <BUSSINESS_NAME>解放公园</BUSSINESS_NAME>
  <BUSSINESS_LNG>114.301895</BUSSINESS_LNG>
  <BUSSINESS_LAT>30.612032</BUSSINESS_LAT>
  <BUSSINESS_DESC>解放公园</BUSSINESS_DESC>
  <BUSSINESS_SORT>21</BUSSINESS_SORT>
</ROW>

<ROW>
  <BUSSINESS_ID>FF73F800C6F56DADE040007F01002DC3</BUSSINESS_ID>
  <BUSSINESS_REGIONID>FDAA9CF07D0061CDE040007F01005B69</BUSSINESS_REGIONID>
  <BUSSINESS_NAME>花桥</BUSSINESS_NAME>
  <BUSSINESS_LNG>114.294288</BUSSINESS_LNG>
  <BUSSINESS_LAT>30.616244</BUSSINESS_LAT>
  <BUSSINESS_DESC>花桥</BUSSINESS_DESC>
  <BUSSINESS_SORT>22</BUSSINESS_SORT>
</ROW>

<ROW>
  <BUSSINESS_ID>FF73F800C6F66DADE040007F01002DC3</BUSSINESS_ID>
  <BUSSINESS_REGIONID>FDAA9CF07D0061CDE040007F01005B69</BUSSINESS_REGIONID>
  <BUSSINESS_NAME>后湖</BUSSINESS_NAME>
  <BUSSINESS_LNG>114.299003</BUSSINESS_LNG>
  <BUSSINESS_LAT>30.640622</BUSSINESS_LAT>
  <BUSSINESS_DESC>后湖</BUSSINESS_DESC>
  <BUSSINESS_SORT>23</BUSSINESS_SORT>
</ROW>

<ROW>
  <BUSSINESS_ID>FF73F800C6F76DADE040007F01002DC3</BUSSINESS_ID>
  <BUSSINESS_REGIONID>FDAA9CF07D0061CDE040007F01005B69</BUSSINESS_REGIONID>
  <BUSSINESS_NAME>百步亭/二七</BUSSINESS_NAME>
  <BUSSINESS_LNG>114.331118</BUSSINESS_LNG>
  <BUSSINESS_LAT>30.65465</BUSSINESS_LAT>
  <BUSSINESS_DESC>百步亭/二七</BUSSINESS_DESC>
  <BUSSINESS_SORT>24</BUSSINESS_SORT>
</ROW>

<ROW>
  <BUSSINESS_ID>FF73F800C6F86DADE040007F01002DC3</BUSSINESS_ID>
  <BUSSINESS_REGIONID>FDAA9CF07D0061CDE040007F01005B69</BUSSINESS_REGIONID>
  <BUSSINESS_NAME>武昌火车站</BUSSINESS_NAME>
  <BUSSINESS_LNG>114.3236</BUSSINESS_LNG>
  <BUSSINESS_LAT>30.5344</BUSSINESS_LAT>
  <BUSSINESS_DESC>武昌火车站</BUSSINESS_DESC>
  <BUSSINESS_SORT>25</BUSSINESS_SORT>
</ROW>

<ROW>
  <BUSSINESS_ID>FF73F800C6F96DADE040007F01002DC3</BUSSINESS_ID>
  <BUSSINESS_REGIONID>FDAA9CF07D0061CDE040007F01005B69</BUSSINESS_REGIONID>
  <BUSSINESS_NAME>阅马场</BUSSINESS_NAME>
  <BUSSINESS_LNG>114.315193</BUSSINESS_LNG>
  <BUSSINESS_LAT>30.545567</BUSSINESS_LAT>
  <BUSSINESS_DESC>阅马场</BUSSINESS_DESC>
  <BUSSINESS_SORT>26</BUSSINESS_SORT>
</ROW>

<ROW>
  <BUSSINESS_ID>FF73F800C6FB6DADE040007F01002DC3</BUSSINESS_ID>
  <BUSSINESS_REGIONID>FDAA9CF07D0061CDE040007F01005B69</BUSSINESS_REGIONID>
  <BUSSINESS_NAME>积玉桥</BUSSINESS_NAME>
  <BUSSINESS_LNG>114.31531</BUSSINESS_LNG>
  <BUSSINESS_LAT>30.56704</BUSSINESS_LAT>
  <BUSSINESS_DESC>积玉桥</BUSSINESS_DESC>
  <BUSSINESS_SORT>28</BUSSINESS_SORT>
</ROW>

<ROW>
  <BUSSINESS_ID>FF73F800C6FD6DADE040007F01002DC3</BUSSINESS_ID>
  <BUSSINESS_REGIONID>FDAA9CF07D0061CDE040007F01005B69</BUSSINESS_REGIONID>
  <BUSSINESS_NAME>大东门/小东门</BUSSINESS_NAME>
  <BUSSINESS_LNG>114.323616</BUSSINESS_LNG>
  <BUSSINESS_LAT>30.545893</BUSSINESS_LAT>
  <BUSSINESS_DESC>大东门/小东门</BUSSINESS_DESC>
  <BUSSINESS_SORT>30</BUSSINESS_SORT>
</ROW>

<ROW>
  <BUSSINESS_ID>FF73F800C6FF6DADE040007F01002DC3</BUSSINESS_ID>
  <BUSSINESS_REGIONID>FDAA9CF07D0061CDE040007F01005B69</BUSSINESS_REGIONID>
  <BUSSINESS_NAME>水果湖</BUSSINESS_NAME>
  <BUSSINESS_LNG>114.357937</BUSSINESS_LNG>
  <BUSSINESS_LAT>30.55754</BUSSINESS_LAT>
  <BUSSINESS_DESC>水果湖</BUSSINESS_DESC>
  <BUSSINESS_SORT>32</BUSSINESS_SORT>
</ROW>

<ROW>
  <BUSSINESS_ID>FF73F800C7006DADE040007F01002DC3</BUSSINESS_ID>
  <BUSSINESS_REGIONID>FDAA9CF07D0061CDE040007F01005B69</BUSSINESS_REGIONID>
  <BUSSINESS_NAME>丁字桥</BUSSINESS_NAME>
  <BUSSINESS_LNG>114.338715</BUSSINESS_LNG>
  <BUSSINESS_LAT>30.534991</BUSSINESS_LAT>
  <BUSSINESS_DESC>丁字桥</BUSSINESS_DESC>
  <BUSSINESS_SORT>33</BUSSINESS_SORT>
</ROW>

<ROW>
  <BUSSINESS_ID>FF73F800C7016DADE040007F01002DC3</BUSSINESS_ID>
  <BUSSINESS_REGIONID>FDAA9CF07D0061CDE040007F01005B69</BUSSINESS_REGIONID>
  <BUSSINESS_NAME>珞珈山</BUSSINESS_NAME>
  <BUSSINESS_LNG>114.37803</BUSSINESS_LNG>
  <BUSSINESS_LAT>30.540777</BUSSINESS_LAT>
  <BUSSINESS_DESC>珞珈山</BUSSINESS_DESC>
  <BUSSINESS_SORT>34</BUSSINESS_SORT>
</ROW>

<ROW>
  <BUSSINESS_ID>FF73F800C7026DADE040007F01002DC3</BUSSINESS_ID>
  <BUSSINESS_REGIONID>FDAA9CF07D0061CDE040007F01005B69</BUSSINESS_REGIONID>
  <BUSSINESS_NAME>余家头</BUSSINESS_NAME>
  <BUSSINESS_LNG>114.359687</BUSSINESS_LNG>
  <BUSSINESS_LAT>30.61622</BUSSINESS_LAT>
  <BUSSINESS_DESC>余家头</BUSSINESS_DESC>
  <BUSSINESS_SORT>35</BUSSINESS_SORT>
</ROW>

<ROW>
  <BUSSINESS_ID>FF73F800C7036DADE040007F01002DC3</BUSSINESS_ID>
  <BUSSINESS_REGIONID>FDAA9CF07D0061CDE040007F01005B69</BUSSINESS_REGIONID>
  <BUSSINESS_NAME>江汉路步行街</BUSSINESS_NAME>
  <BUSSINESS_LNG>114.296093</BUSSINESS_LNG>
  <BUSSINESS_LAT>30.588082</BUSSINESS_LAT>
  <BUSSINESS_DESC>江汉路步行街</BUSSINESS_DESC>
  <BUSSINESS_SORT>36</BUSSINESS_SORT>
</ROW>

<ROW>
  <BUSSINESS_ID>FF73F800C7056DADE040007F01002DC3</BUSSINESS_ID>
  <BUSSINESS_REGIONID>FDAA9CF07D0061CDE040007F01005B69</BUSSINESS_REGIONID>
  <BUSSINESS_NAME>六渡桥</BUSSINESS_NAME>
  <BUSSINESS_LNG>114.289826</BUSSINESS_LNG>
  <BUSSINESS_LAT>30.580314</BUSSINESS_LAT>
  <BUSSINESS_DESC>六渡桥</BUSSINESS_DESC>
  <BUSSINESS_SORT>38</BUSSINESS_SORT>
</ROW>

<ROW>
  <BUSSINESS_ID>FF73F800C7066DADE040007F01002DC3</BUSSINESS_ID>
  <BUSSINESS_REGIONID>FDAA9CF07D0061CDE040007F01005B69</BUSSINESS_REGIONID>
  <BUSSINESS_NAME>西北湖</BUSSINESS_NAME>
  <BUSSINESS_LNG>114.272084</BUSSINESS_LNG>
  <BUSSINESS_LAT>30.606725</BUSSINESS_LAT>
  <BUSSINESS_DESC>西北湖</BUSSINESS_DESC>
  <BUSSINESS_SORT>39</BUSSINESS_SORT>
</ROW>

<ROW>
  <BUSSINESS_ID>FF73F800C7076DADE040007F01002DC3</BUSSINESS_ID>
  <BUSSINESS_REGIONID>FDAA9CF07D0061CDE040007F01005B69</BUSSINESS_REGIONID>
  <BUSSINESS_NAME>万松园</BUSSINESS_NAME>
  <BUSSINESS_LNG>114.273224</BUSSINESS_LNG>
  <BUSSINESS_LAT>30.596362</BUSSINESS_LAT>
  <BUSSINESS_DESC>万松园</BUSSINESS_DESC>
  <BUSSINESS_SORT>40</BUSSINESS_SORT>
</ROW>

<ROW>
  <BUSSINESS_ID>FF73F800C7086DADE040007F01002DC3</BUSSINESS_ID>
  <BUSSINESS_REGIONID>FDAA9CF07D0061CDE040007F01005B69</BUSSINESS_REGIONID>
  <BUSSINESS_NAME>唐家墩/菱角湖</BUSSINESS_NAME>
  <BUSSINESS_LNG>114.274974</BUSSINESS_LNG>
  <BUSSINESS_LAT>30.616212</BUSSINESS_LAT>
  <BUSSINESS_DESC>唐家墩/菱角湖</BUSSINESS_DESC>
  <BUSSINESS_SORT>41</BUSSINESS_SORT>
</ROW>

<ROW>
  <BUSSINESS_ID>FF73F800C7096DADE040007F01002DC3</BUSSINESS_ID>
  <BUSSINESS_REGIONID>FDAA9CF07D0061CDE040007F01005B69</BUSSINESS_REGIONID>
  <BUSSINESS_NAME>汉口火车站</BUSSINESS_NAME>
  <BUSSINESS_LNG>114.261572</BUSSINESS_LNG>
  <BUSSINESS_LAT>30.62197</BUSSINESS_LAT>
  <BUSSINESS_DESC>汉口火车站</BUSSINESS_DESC>
  <BUSSINESS_SORT>42</BUSSINESS_SORT>
</ROW>

<ROW>
  <BUSSINESS_ID>FF73F800C70A6DADE040007F01002DC3</BUSSINESS_ID>
  <BUSSINESS_REGIONID>FDAA9CF07D0061CDE040007F01005B69</BUSSINESS_REGIONID>
  <BUSSINESS_NAME>武胜路</BUSSINESS_NAME>
  <BUSSINESS_LNG>114.275055</BUSSINESS_LNG>
  <BUSSINESS_LAT>30.58243</BUSSINESS_LAT>
  <BUSSINESS_DESC>武胜路</BUSSINESS_DESC>
  <BUSSINESS_SORT>43</BUSSINESS_SORT>
</ROW>

<ROW>
  <BUSSINESS_ID>FF73F800C70B6DADE040007F01002DC3</BUSSINESS_ID>
  <BUSSINESS_REGIONID>FDAA9CF07D0061CDE040007F01005B69</BUSSINESS_REGIONID>
  <BUSSINESS_NAME>宝丰路</BUSSINESS_NAME>
  <BUSSINESS_LNG>114.256946</BUSSINESS_LNG>
  <BUSSINESS_LAT>30.582929</BUSSINESS_LAT>
  <BUSSINESS_DESC>宝丰路</BUSSINESS_DESC>
  <BUSSINESS_SORT>44</BUSSINESS_SORT>
</ROW>

<ROW>
  <BUSSINESS_ID>FF73F800C70C6DADE040007F01002DC3</BUSSINESS_ID>
  <BUSSINESS_REGIONID>FDAA9CF07D0061CDE040007F01005B69</BUSSINESS_REGIONID>
  <BUSSINESS_NAME>硚口路</BUSSINESS_NAME>
  <BUSSINESS_LNG>114.257681</BUSSINESS_LNG>
  <BUSSINESS_LAT>30.575894</BUSSINESS_LAT>
  <BUSSINESS_DESC>硚口路</BUSSINESS_DESC>
  <BUSSINESS_SORT>45</BUSSINESS_SORT>
</ROW>

<ROW>
  <BUSSINESS_ID>FF73F800C70D6DADE040007F01002DC3</BUSSINESS_ID>
  <BUSSINESS_REGIONID>FDAA9CF07D0061CDE040007F01005B69</BUSSINESS_REGIONID>
  <BUSSINESS_NAME>汉西路</BUSSINESS_NAME>
  <BUSSINESS_LNG>114.23945</BUSSINESS_LNG>
  <BUSSINESS_LAT>30.612072</BUSSINESS_LAT>
  <BUSSINESS_DESC>汉西路</BUSSINESS_DESC>
  <BUSSINESS_SORT>46</BUSSINESS_SORT>
</ROW>

<ROW>
  <BUSSINESS_ID>FF73F800C70E6DADE040007F01002DC3</BUSSINESS_ID>
  <BUSSINESS_REGIONID>FDAA9CF07D0061CDE040007F01005B69</BUSSINESS_REGIONID>
  <BUSSINESS_NAME>古田路</BUSSINESS_NAME>
  <BUSSINESS_LNG>114.209762</BUSSINESS_LNG>
  <BUSSINESS_LAT>30.596049</BUSSINESS_LAT>
  <BUSSINESS_DESC>古田路</BUSSINESS_DESC>
  <BUSSINESS_SORT>47</BUSSINESS_SORT>
</ROW>

<ROW>
  <BUSSINESS_ID>FF73F800C7116DADE040007F01002DC3</BUSSINESS_ID>
  <BUSSINESS_REGIONID>FDAA9CF07D0061CDE040007F01005B69</BUSSINESS_REGIONID>
  <BUSSINESS_NAME>鹦鹉大道</BUSSINESS_NAME>
  <BUSSINESS_LNG>114.272187</BUSSINESS_LNG>
  <BUSSINESS_LAT>30.559683</BUSSINESS_LAT>
  <BUSSINESS_DESC>鹦鹉大道</BUSSINESS_DESC>
  <BUSSINESS_SORT>50</BUSSINESS_SORT>
</ROW>

<ROW>
  <BUSSINESS_ID>FF73F800C7126DADE040007F01002DC3</BUSSINESS_ID>
  <BUSSINESS_REGIONID>FDAA9CF07D0061CDE040007F01005B69</BUSSINESS_REGIONID>
  <BUSSINESS_NAME>汉阳大道</BUSSINESS_NAME>
  <BUSSINESS_LNG>114.216393</BUSSINESS_LNG>
  <BUSSINESS_LAT>30.567364</BUSSINESS_LAT>
  <BUSSINESS_DESC>汉阳大道</BUSSINESS_DESC>
  <BUSSINESS_SORT>51</BUSSINESS_SORT>
</ROW>

<ROW>
  <BUSSINESS_ID>FF73F800C7136DADE040007F01002DC3</BUSSINESS_ID>
  <BUSSINESS_REGIONID>FDAA9CF07D0061CDE040007F01005B69</BUSSINESS_REGIONID>
  <BUSSINESS_NAME>奥山世纪城</BUSSINESS_NAME>
  <BUSSINESS_LNG>114.366464</BUSSINESS_LNG>
  <BUSSINESS_LAT>30.625404</BUSSINESS_LAT>
  <BUSSINESS_DESC>奥山世纪城</BUSSINESS_DESC>
  <BUSSINESS_SORT>52</BUSSINESS_SORT>
</ROW>

<ROW>
  <BUSSINESS_ID>FF73F800C7156DADE040007F01002DC3</BUSSINESS_ID>
  <BUSSINESS_REGIONID>FDAA9CF07D0061CDE040007F01005B69</BUSSINESS_REGIONID>
  <BUSSINESS_NAME>光谷天地</BUSSINESS_NAME>
  <BUSSINESS_LNG>114.41776</BUSSINESS_LNG>
  <BUSSINESS_LAT>30.483692</BUSSINESS_LAT>
  <BUSSINESS_DESC>光谷天地</BUSSINESS_DESC>
  <BUSSINESS_SORT>54</BUSSINESS_SORT>
</ROW>

<ROW>
  <BUSSINESS_ID>FF73F800C7176DADE040007F01002DC3</BUSSINESS_ID>
  <BUSSINESS_REGIONID>FDAA9CF07D0061CDE040007F01005B69</BUSSINESS_REGIONID>
  <BUSSINESS_NAME>石牌岭/街道口</BUSSINESS_NAME>
  <BUSSINESS_LNG>114.35014</BUSSINESS_LNG>
  <BUSSINESS_LAT>30.535518</BUSSINESS_LAT>
  <BUSSINESS_DESC>石牌岭/街道口</BUSSINESS_DESC>
  <BUSSINESS_SORT>56</BUSSINESS_SORT>
</ROW>

<ROW>
  <BUSSINESS_ID>FF73F800C7186DADE040007F01002DC3</BUSSINESS_ID>
  <BUSSINESS_REGIONID>FDAA9CF07D0061CDE040007F01005B69</BUSSINESS_REGIONID>
  <BUSSINESS_NAME>广埠屯</BUSSINESS_NAME>
  <BUSSINESS_LNG>114.368518</BUSSINESS_LNG>
  <BUSSINESS_LAT>30.529835</BUSSINESS_LAT>
  <BUSSINESS_DESC>广埠屯</BUSSINESS_DESC>
  <BUSSINESS_SORT>57</BUSSINESS_SORT>
</ROW>

<ROW>
  <BUSSINESS_ID>FF73F800C7196DADE040007F01002DC3</BUSSINESS_ID>
  <BUSSINESS_REGIONID>FDAA9CF07D0061CDE040007F01005B69</BUSSINESS_REGIONID>
  <BUSSINESS_NAME>卓刀泉</BUSSINESS_NAME>
  <BUSSINESS_LNG>114.380091</BUSSINESS_LNG>
  <BUSSINESS_LAT>30.521444</BUSSINESS_LAT>
  <BUSSINESS_DESC>卓刀泉</BUSSINESS_DESC>
  <BUSSINESS_SORT>58</BUSSINESS_SORT>
</ROW>

<ROW>
  <BUSSINESS_ID>FF73F800C71A6DADE040007F01002DC3</BUSSINESS_ID>
  <BUSSINESS_REGIONID>FDAA9CF07D0061CDE040007F01005B69</BUSSINESS_REGIONID>
  <BUSSINESS_NAME>南湖花园</BUSSINESS_NAME>
  <BUSSINESS_LNG>114.325279</BUSSINESS_LNG>
  <BUSSINESS_LAT>30.522579</BUSSINESS_LAT>
  <BUSSINESS_DESC>南湖花园</BUSSINESS_DESC>
  <BUSSINESS_SORT>59</BUSSINESS_SORT>
</ROW>

<ROW>
  <BUSSINESS_ID>FF73F800C71B6DADE040007F01002DC3</BUSSINESS_ID>
  <BUSSINESS_REGIONID>FDAA9CF07D0061CDE040007F01005B69</BUSSINESS_REGIONID>
  <BUSSINESS_NAME>常青花园</BUSSINESS_NAME>
  <BUSSINESS_LNG>114.248873</BUSSINESS_LNG>
  <BUSSINESS_LAT>30.646861</BUSSINESS_LAT>
  <BUSSINESS_DESC>常青花园</BUSSINESS_DESC>
  <BUSSINESS_SORT>60</BUSSINESS_SORT>
</ROW>

<ROW>
  <BUSSINESS_ID>FF73F800C71C6DADE040007F01002DC3</BUSSINESS_ID>
  <BUSSINESS_REGIONID>FDAA9CF07D0061CDE040007F01005B69</BUSSINESS_REGIONID>
  <BUSSINESS_NAME>金银湖</BUSSINESS_NAME>
  <BUSSINESS_LNG>114.19701</BUSSINESS_LNG>
  <BUSSINESS_LAT>30.664311</BUSSINESS_LAT>
  <BUSSINESS_DESC>金银湖</BUSSINESS_DESC>
  <BUSSINESS_SORT>61</BUSSINESS_SORT>
</ROW>

<ROW>
  <BUSSINESS_ID>FF73F800C71D6DADE040007F01002DC3</BUSSINESS_ID>
  <BUSSINESS_REGIONID>FDAA9CF07D0061CDE040007F01005B69</BUSSINESS_REGIONID>
  <BUSSINESS_NAME>吴家山</BUSSINESS_NAME>
  <BUSSINESS_LNG>114.141675</BUSSINESS_LNG>
  <BUSSINESS_LAT>30.63934</BUSSINESS_LAT>
  <BUSSINESS_DESC>吴家山</BUSSINESS_DESC>
  <BUSSINESS_SORT>62</BUSSINESS_SORT>
</ROW>

<ROW>
  <BUSSINESS_ID>FD59B9D09CC10B62E040007F01007051</BUSSINESS_ID>
  <BUSSINESS_REGIONID>FDAA9CF07D0061CDE040007F01005B69</BUSSINESS_REGIONID>
  <BUSSINESS_NAME>江汉路</BUSSINESS_NAME>
  <BUSSINESS_LNG>114.292218</BUSSINESS_LNG>
  <BUSSINESS_LAT>30.590923</BUSSINESS_LAT>
  <BUSSINESS_DESC>江汉路</BUSSINESS_DESC>
  <BUSSINESS_SORT>1</BUSSINESS_SORT>
</ROW>

<ROW>
  <BUSSINESS_ID>FD59B9D09CC20B62E040007F01007051</BUSSINESS_ID>
  <BUSSINESS_REGIONID>FDAA9CF07D0061CDE040007F01005B69</BUSSINESS_REGIONID>
  <BUSSINESS_NAME>鲁巷广场</BUSSINESS_NAME>
  <BUSSINESS_LNG>114.405835</BUSSINESS_LNG>
  <BUSSINESS_LAT>30.512395</BUSSINESS_LAT>
  <BUSSINESS_DESC>鲁巷广场</BUSSINESS_DESC>
  <BUSSINESS_SORT>2</BUSSINESS_SORT>
</ROW>

<ROW>
  <BUSSINESS_ID>FE3869641B55F07CE040007F010065E2</BUSSINESS_ID>
  <BUSSINESS_REGIONID>FDAA9CF07D0061CDE040007F01005B69</BUSSINESS_REGIONID>
  <BUSSINESS_NAME>航空路</BUSSINESS_NAME>
  <BUSSINESS_LNG>114.272312</BUSSINESS_LNG>
  <BUSSINESS_LAT>30.58694</BUSSINESS_LAT>
  <BUSSINESS_DESC>航空路</BUSSINESS_DESC>
  <BUSSINESS_SORT>6</BUSSINESS_SORT>
</ROW>

<ROW>
  <BUSSINESS_ID>FE3869641B56F07CE040007F010065E2</BUSSINESS_ID>
  <BUSSINESS_REGIONID>FDAA9CF07D0061CDE040007F01005B69</BUSSINESS_REGIONID>
  <BUSSINESS_NAME>光谷</BUSSINESS_NAME>
  <BUSSINESS_LNG>114.405513</BUSSINESS_LNG>
  <BUSSINESS_LAT>30.512205</BUSSINESS_LAT>
  <BUSSINESS_DESC>光谷</BUSSINESS_DESC>
  <BUSSINESS_SORT>7</BUSSINESS_SORT>
</ROW>

<ROW>
  <BUSSINESS_ID>FE3869641B57F07CE040007F010065E2</BUSSINESS_ID>
  <BUSSINESS_REGIONID>FDAA9CF07D0061CDE040007F01005B69</BUSSINESS_REGIONID>
  <BUSSINESS_NAME>街道口</BUSSINESS_NAME>
  <BUSSINESS_LNG>114.358616</BUSSINESS_LNG>
  <BUSSINESS_LAT>30.533479</BUSSINESS_LAT>
  <BUSSINESS_DESC>街道口</BUSSINESS_DESC>
  <BUSSINESS_SORT>8</BUSSINESS_SORT>
</ROW>

<ROW>
  <BUSSINESS_ID>FE3869641B58F07CE040007F010065E2</BUSSINESS_ID>
  <BUSSINESS_REGIONID>FDAA9CF07D0061CDE040007F01005B69</BUSSINESS_REGIONID>
  <BUSSINESS_NAME>徐东大街</BUSSINESS_NAME>
  <BUSSINESS_LNG>114.348771</BUSSINESS_LNG>
  <BUSSINESS_LAT>30.589143</BUSSINESS_LAT>
  <BUSSINESS_DESC>徐东大街</BUSSINESS_DESC>
  <BUSSINESS_SORT>9</BUSSINESS_SORT>
</ROW>

<ROW>
  <BUSSINESS_ID>FE3869641B59F07CE040007F010065E2</BUSSINESS_ID>
  <BUSSINESS_REGIONID>FDAA9CF07D0061CDE040007F01005B69</BUSSINESS_REGIONID>
  <BUSSINESS_NAME>司门口</BUSSINESS_NAME>
  <BUSSINESS_LNG>114.312821</BUSSINESS_LNG>
  <BUSSINESS_LAT>30.55118</BUSSINESS_LAT>
  <BUSSINESS_DESC>司门口</BUSSINESS_DESC>
  <BUSSINESS_SORT>10</BUSSINESS_SORT>
</ROW>

<ROW>
  <BUSSINESS_ID>FE3869641B5AF07CE040007F010065E2</BUSSINESS_ID>
  <BUSSINESS_REGIONID>FDAA9CF07D0061CDE040007F01005B69</BUSSINESS_REGIONID>
  <BUSSINESS_NAME>红钢城</BUSSINESS_NAME>
  <BUSSINESS_LNG>114.408098</BUSSINESS_LNG>
  <BUSSINESS_LAT>30.643562</BUSSINESS_LAT>
  <BUSSINESS_DESC>红钢城</BUSSINESS_DESC>
  <BUSSINESS_SORT>11</BUSSINESS_SORT>
</ROW>

<ROW>
  <BUSSINESS_ID>FE3869641B5BF07CE040007F010065E2</BUSSINESS_ID>
  <BUSSINESS_REGIONID>FDAA9CF07D0061CDE040007F01005B69</BUSSINESS_REGIONID>
  <BUSSINESS_NAME>王家湾</BUSSINESS_NAME>
  <BUSSINESS_LNG>114.213704</BUSSINESS_LNG>
  <BUSSINESS_LAT>30.572042</BUSSINESS_LAT>
  <BUSSINESS_DESC>王家湾</BUSSINESS_DESC>
  <BUSSINESS_SORT>12</BUSSINESS_SORT>
</ROW>

<ROW>
  <BUSSINESS_ID>FE3869641B5CF07CE040007F010065E2</BUSSINESS_ID>
  <BUSSINESS_REGIONID>FDAA9CF07D0961CDE040007F01005B69</BUSSINESS_REGIONID>
  <BUSSINESS_NAME>中山路</BUSSINESS_NAME>
  <BUSSINESS_LNG>118.082647</BUSSINESS_LNG>
  <BUSSINESS_LAT>24.463099</BUSSINESS_LAT>
  <BUSSINESS_DESC>厦门中山路商圈</BUSSINESS_DESC>
  <BUSSINESS_SORT>13</BUSSINESS_SORT>
</ROW>

<ROW>
  <BUSSINESS_ID>FE3869641B5DF07CE040007F010065E2</BUSSINESS_ID>
  <BUSSINESS_REGIONID>FDAA9CF07D0961CDE040007F01005B69</BUSSINESS_REGIONID>
  <BUSSINESS_NAME>火车站莲坂</BUSSINESS_NAME>
  <BUSSINESS_LNG>118.123231</BUSSINESS_LNG>
  <BUSSINESS_LAT>24.480653</BUSSINESS_LAT>
  <BUSSINESS_DESC>厦门火车站莲坂商圈</BUSSINESS_DESC>
  <BUSSINESS_SORT>14</BUSSINESS_SORT>
</ROW>

<ROW>
  <BUSSINESS_ID>FE3869641B5EF07CE040007F010065E2</BUSSINESS_ID>
  <BUSSINESS_REGIONID>FDAA9CF07D0961CDE040007F01005B69</BUSSINESS_REGIONID>
  <BUSSINESS_NAME>禾祥西路商</BUSSINESS_NAME>
  <BUSSINESS_LNG>118.094414</BUSSINESS_LNG>
  <BUSSINESS_LAT>24.471905</BUSSINESS_LAT>
  <BUSSINESS_DESC>厦门禾祥西路商圈</BUSSINESS_DESC>
  <BUSSINESS_SORT>15</BUSSINESS_SORT>
</ROW>

<ROW>
  <BUSSINESS_ID>FE3869641B5FF07CE040007F010065E2</BUSSINESS_ID>
  <BUSSINESS_REGIONID>FDAA9CF07D0961CDE040007F01005B69</BUSSINESS_REGIONID>
  <BUSSINESS_NAME>莲花南北路</BUSSINESS_NAME>
  <BUSSINESS_LNG>118.136831</BUSSINESS_LNG>
  <BUSSINESS_LAT>24.494198</BUSSINESS_LAT>
  <BUSSINESS_DESC>厦门莲花南北路商圈</BUSSINESS_DESC>
  <BUSSINESS_SORT>16</BUSSINESS_SORT>
</ROW>

<ROW>
  <BUSSINESS_ID>FE3869641B60F07CE040007F010065E2</BUSSINESS_ID>
  <BUSSINESS_REGIONID>FDAA9CF07D0961CDE040007F01005B69</BUSSINESS_REGIONID>
  <BUSSINESS_NAME>莲钱埔</BUSSINESS_NAME>
  <BUSSINESS_LNG>118.165618</BUSSINESS_LNG>
  <BUSSINESS_LAT>24.479285</BUSSINESS_LAT>
  <BUSSINESS_DESC>厦门莲钱埔商圈</BUSSINESS_DESC>
  <BUSSINESS_SORT>17</BUSSINESS_SORT>
</ROW>

<ROW>
  <BUSSINESS_ID>FE3869641B61F07CE040007F010065E2</BUSSINESS_ID>
  <BUSSINESS_REGIONID>FDAA9CF07D0961CDE040007F01005B69</BUSSINESS_REGIONID>
  <BUSSINESS_NAME>电子城</BUSSINESS_NAME>
  <BUSSINESS_LNG>118.099598</BUSSINESS_LNG>
  <BUSSINESS_LAT>24.471486</BUSSINESS_LAT>
  <BUSSINESS_DESC>厦门电子城商圈</BUSSINESS_DESC>
  <BUSSINESS_SORT>18</BUSSINESS_SORT>
</ROW>

<ROW>
  <BUSSINESS_ID>FE3869641B62F07CE040007F010065E2</BUSSINESS_ID>
  <BUSSINESS_REGIONID>FDAA9CF07D0961CDE040007F01005B69</BUSSINESS_REGIONID>
  <BUSSINESS_NAME>江头建材</BUSSINESS_NAME>
  <BUSSINESS_LNG>118.140187</BUSSINESS_LNG>
  <BUSSINESS_LAT>24.504773</BUSSINESS_LAT>
  <BUSSINESS_DESC>厦门江头建材商圈</BUSSINESS_DESC>
  <BUSSINESS_SORT>19</BUSSINESS_SORT>
</ROW>

<ROW>
  <BUSSINESS_ID>FE3869641B63F07CE040007F010065E2</BUSSINESS_ID>
  <BUSSINESS_REGIONID>FDBE08C94664116BE040007F010016AA</BUSSINESS_REGIONID>
  <BUSSINESS_NAME>五马街</BUSSINESS_NAME>
  <BUSSINESS_LNG>120.664045</BUSSINESS_LNG>
  <BUSSINESS_LAT>28.021096</BUSSINESS_LAT>
  <BUSSINESS_DESC>温州五马街商圈</BUSSINESS_DESC>
  <BUSSINESS_SORT>20</BUSSINESS_SORT>
</ROW>

<ROW>
  <BUSSINESS_ID>FE3869641B64F07CE040007F010065E2</BUSSINESS_ID>
  <BUSSINESS_REGIONID>FDBE08C94664116BE040007F010016AA</BUSSINESS_REGIONID>
  <BUSSINESS_NAME>大南</BUSSINESS_NAME>
  <BUSSINESS_LNG>120.670769</BUSSINESS_LNG>
  <BUSSINESS_LAT>28.011337</BUSSINESS_LAT>
  <BUSSINESS_DESC>温州大南商圈</BUSSINESS_DESC>
  <BUSSINESS_SORT>21</BUSSINESS_SORT>
</ROW>

<ROW>
  <BUSSINESS_ID>FE3869641B65F07CE040007F010065E2</BUSSINESS_ID>
  <BUSSINESS_REGIONID>FDBE08C94664116BE040007F010016AA</BUSSINESS_REGIONID>
  <BUSSINESS_NAME>欧洲城</BUSSINESS_NAME>
  <BUSSINESS_LNG>120.675153</BUSSINESS_LNG>
  <BUSSINESS_LAT>28.023519</BUSSINESS_LAT>
  <BUSSINESS_DESC>温州欧洲城商圈</BUSSINESS_DESC>
  <BUSSINESS_SORT>22</BUSSINESS_SORT>
</ROW>

<ROW>
  <BUSSINESS_ID>FE3869641B66F07CE040007F010065E2</BUSSINESS_ID>
  <BUSSINESS_REGIONID>FDBE08C94664116BE040007F010016AA</BUSSINESS_REGIONID>
  <BUSSINESS_NAME>财富时代</BUSSINESS_NAME>
  <BUSSINESS_LNG>120.690254</BUSSINESS_LNG>
  <BUSSINESS_LAT>28.003225</BUSSINESS_LAT>
  <BUSSINESS_DESC>温州财富时代商圈</BUSSINESS_DESC>
  <BUSSINESS_SORT>23</BUSSINESS_SORT>
</ROW>

</ROWDATA>
